[
  {
    "id": 1,
    "locname": "Cluj",
    "latitude": "46.7712101",
    "longitude": "23.6236353"
  },
  {
    "id": 2,
    "locname": "Bucuresti",
    "latitude": "44.4267674",
    "longitude": "26.1025384"
  },
  {
    "id": 3,
    "locname": "Constanta",
    "latitude": "44.1598013",
    "longitude": "28.6348138"
  },
  {
    "id": 11,
    "locname": "Brasov",
    "latitude": "45.6426802",
    "longitude": "25.5887252"
  },
  {
    "id": 13,
    "locname": "Alta (Norway)",
    "latitude": "69.9798013",
    "longitude": "23.2986793"
  },
  {
    "id": 15,
    "locname": "Abidjan (Coasta de Fildes)",
    "latitude": "5.3567934",
    "longitude": "-4.1006793"
  },
  {
    "id": 16,
    "locname": "Lagos (Ghana)",
    "latitude": "6.5798013",
    "longitude": "3.3729867"
  }
]
